{
"type": "FeatureCollection",
"name": "naturalSitesTourism",
"crs": { "type": "name", "properties": { "name": "urn:ogc:def:crs:OGC:1.3:CRS84" } },
"features": [
{ "type": "Feature", "properties": { "Name": "Big Rock", "Ownership": "Public", "photosphereLink": "https:\/\/www.google.com\/maps\/@17.032925,-88.9746175,3a,75y,34.72h,90t\/data=!3m8!1e1!3m6!1sAF1QipOkfKdoOUbwv-jKmxdP6s3dOiegpthyFpTg_0QU!2e10!3e11!6shttps:%2F%2Flh5.googleusercontent.com%2Fp%2FAF1QipOkfKdoOUbwv-jKmxdP6s3dOiegpthyFpTg_0QU%3Dw203-h100-k-no-pi-0-ya257.52347-ro0-fo100!7i4000!8i2000" }, "geometry": { "type": "Point", "coordinates": [ -88.9747, 17.03314 ] } },
{ "type": "Feature", "properties": { "Name": "Offering Cave", "Ownership": "Public", "photosphereLink": "https:\/\/www.travelbelize.org\/" }, "geometry": { "type": "Point", "coordinates": [ -89.05681, 17.04686 ] } },
{ "type": "Feature", "properties": { "Name": "Cristo Rey Waterfall", "Ownership": "Private", "photosphereLink": "https:\/\/www.travelbelize.org\/" }, "geometry": { "type": "Point", "coordinates": [ -89.04065, 17.12802 ] } },
{ "type": "Feature", "properties": { "Name": "Douglas D'Silva", "Ownership": "Public", "photosphereLink": "https:\/\/en.wikipedia.org\/wiki\/Mountain_Pine_Ridge_Forest_Reserve" }, "geometry": { "type": "Point", "coordinates": [ -88.99109, 16.97139 ] } },
{ "type": "Feature", "properties": { "Name": "Granite Falls", "Ownership": "Public", "photosphereLink": "https:\/\/www.travelbelize.org\/" }, "geometry": { "type": "Point", "coordinates": [ -88.95023, 16.97974 ] } },
{ "type": "Feature", "properties": { "Name": "Natural Arch", "Ownership": "Public", "photosphereLink": "https:\/\/www.travelbelize.org\/" }, "geometry": { "type": "Point", "coordinates": [ -89.04887, 16.61895 ] } },
{ "type": "Feature", "properties": { "Name": "Pinol Sands", "Ownership": "Public", "photosphereLink": "https:\/\/www.google.com\/maps\/@17.0331042,-88.9748615,3a,75y,172.17h,81.13t\/data=!3m8!1e1!3m6!1sAF1QipPtyTZMu9ir8K3duDAVuT_07LkkwqvfqCtQTXko!2e10!3e11!6shttps:%2F%2Flh5.googleusercontent.com%2Fp%2FAF1QipPtyTZMu9ir8K3duDAVuT_07LkkwqvfqCtQTXko%3Dw203-h100-k-no-pi-0-ya138-ro-0-fo100!7i8704!8i4352" }, "geometry": { "type": "Point", "coordinates": [ -88.9831, 17.01209 ] } },
{ "type": "Feature", "properties": { "Name": "Rio on Pools", "Ownership": "Public", "photosphereLink": "https:\/\/www.google.com\/maps\/@16.9869989,-88.9775151,3a,75y,302.14h,86.88t\/data=!3m8!1e1!3m6!1sAF1QipNFYMx8DzFT-K1qMUSXcTvH3iOFy4CKw4PdaOqH!2e10!3e11!6shttps:%2F%2Flh5.googleusercontent.com%2Fp%2FAF1QipNFYMx8DzFT-K1qMUSXcTvH3iOFy4CKw4PdaOqH%3Dw203-h100-k-no-pi-10-ya50.000004-ro-0-fo100!7i7168!8i3584" }, "geometry": { "type": "Point", "coordinates": [ -88.97751, 16.987 ] } },
{ "type": "Feature", "properties": { "Name": "Rio Frio Cave", "Ownership": "Public", "photosphereLink": "https:\/\/www.google.com\/maps\/@16.956901,-88.979575,3a,90y,304.51h,86.32t\/data=!3m8!1e1!3m6!1sAF1QipOQ4UIO0f-AC3HgGkm31x9C4PaUEnYCviSxfx17!2e10!3e11!6shttps:%2F%2Flh5.googleusercontent.com%2Fp%2FAF1QipOQ4UIO0f-AC3HgGkm31x9C4PaUEnYCviSxfx17%3Dw203-h100-k-no-pi-0-ya34.816444-ro-0-fo100!7i8704!8i4352" }, "geometry": { "type": "Point", "coordinates": [ -89.00012, 16.9796 ] } },
{ "type": "Feature", "properties": { "Name": "Sapodilla Waterfall", "Ownership": "Public", "photosphereLink": "https:\/\/www.travelbelize.org\/" }, "geometry": { "type": "Point", "coordinates": [ -89.00823, 17.02854 ] } },
{ "type": "Feature", "properties": { "Name": "Barton Creek Cave", "Ownership": "Private", "photosphereLink": "https:\/\/www.travelbelize.org\/" }, "geometry": { "type": "Point", "coordinates": [ -88.92829, 17.11286 ] } }
]
}
